{
  "가산디지털단지역": {
    "id": "21160721",
    "name": "가산디지털단지역 7호선",
    "address": "서울 금천구 벚꽃로 309",
    "lat": 37.4803959660982,
    "lng": 126.882661758356,
    "radius": 600,
    "cafeCount": 189,
    "restaurantCount": 693,
    "commercialCount": 5,
    "hotPlaceCount": 887,
    "hotPlaceSignal": 1164.1
  },
  "강남역": {
    "id": "21160803",
    "name": "강남역 2호선",
    "address": "서울 강남구 강남대로 지하 396",
    "lat": 37.49808633653005,
    "lng": 127.02800140627488,
    "radius": 600,
    "cafeCount": 292,
    "restaurantCount": 1061,
    "commercialCount": 16,
    "hotPlaceCount": 1369,
    "hotPlaceSignal": 1788.35
  },
  "건대입구역": {
    "id": "21160625",
    "name": "건대입구역 2호선",
    "address": "서울 광진구 아차산로 243",
    "lat": 37.54040751726388,
    "lng": 127.06920291650829,
    "radius": 600,
    "cafeCount": 200,
    "restaurantCount": 821,
    "commercialCount": 12,
    "hotPlaceCount": 1033,
    "hotPlaceSignal": 1352.55
  },
  "고속터미널역": {
    "id": "21160819",
    "name": "고속터미널역 3호선",
    "address": "서울 서초구 신반포로 지하 188",
    "lat": 37.50454885557265,
    "lng": 127.00512100872538,
    "radius": 600,
    "cafeCount": 109,
    "restaurantCount": 406,
    "commercialCount": 5,
    "hotPlaceCount": 520,
    "hotPlaceSignal": 680.65
  },
  "공덕역": {
    "id": "21160756",
    "name": "공덕역 5호선",
    "address": "서울 마포구 마포대로 지하 100",
    "lat": 37.5445416897534,
    "lng": 126.951451177648,
    "radius": 600,
    "cafeCount": 157,
    "restaurantCount": 719,
    "commercialCount": 2,
    "hotPlaceCount": 878,
    "hotPlaceSignal": 1159.75
  },
  "광교중앙역": {
    "id": "27392591",
    "name": "광교중앙역 신분당선",
    "address": "경기 수원시 영통구 도청로 지하 45",
    "lat": 37.2883843017536,
    "lng": 127.051726324729,
    "radius": 600,
    "cafeCount": 109,
    "restaurantCount": 332,
    "commercialCount": 6,
    "hotPlaceCount": 447,
    "hotPlaceSignal": 581.1
  },
  "광화문역": {
    "id": "21160840",
    "name": "광화문역 5호선",
    "address": "서울 종로구 세종대로 지하 172",
    "lat": 37.57164860977568,
    "lng": 126.97642427981408,
    "radius": 600,
    "cafeCount": 308,
    "restaurantCount": 958,
    "commercialCount": 66,
    "hotPlaceCount": 1332,
    "hotPlaceSignal": 1686
  },
  "교대역": {
    "id": "21160636",
    "name": "교대역 3호선",
    "address": "서울 서초구 서초대로 지하 294",
    "lat": 37.4927431676548,
    "lng": 127.013867969161,
    "radius": 600,
    "cafeCount": 168,
    "restaurantCount": 671,
    "commercialCount": 14,
    "hotPlaceCount": 853,
    "hotPlaceSignal": 1112.35
  },
  "구로디지털단지역": {
    "id": "21160579",
    "name": "구로디지털단지역 2호선",
    "address": "서울 구로구 도림천로 477",
    "lat": 37.4852605752505,
    "lng": 126.901473080039,
    "radius": 600,
    "cafeCount": 128,
    "restaurantCount": 631,
    "commercialCount": 2,
    "hotPlaceCount": 761,
    "hotPlaceSignal": 1006.15
  },
  "군자역": {
    "id": "21160692",
    "name": "군자역 5호선",
    "address": "서울 광진구 천호대로 지하 550",
    "lat": 37.557151488837924,
    "lng": 127.0795106156054,
    "radius": 600,
    "cafeCount": 106,
    "restaurantCount": 499,
    "commercialCount": 5,
    "hotPlaceCount": 610,
    "hotPlaceSignal": 802.6
  },
  "금정역": {
    "id": "21160678",
    "name": "금정역 4호선",
    "address": "경기 군포시 군포로 750",
    "lat": 37.37246820714397,
    "lng": 126.94347315682283,
    "radius": 600,
    "cafeCount": 71,
    "restaurantCount": 416,
    "commercialCount": 2,
    "hotPlaceCount": 489,
    "hotPlaceSignal": 647.5
  },
  "길동역": {
    "id": "21160663",
    "name": "길동역 5호선",
    "address": "서울 강동구 양재대로 지하 1480",
    "lat": 37.5378264874159,
    "lng": 127.140021295948,
    "radius": 600,
    "cafeCount": 111,
    "restaurantCount": 585,
    "commercialCount": 3,
    "hotPlaceCount": 699,
    "hotPlaceSignal": 924
  },
  "낙성대역": {
    "id": "21160588",
    "name": "낙성대역 2호선",
    "address": "서울 관악구 남부순환로 지하 1928",
    "lat": 37.4770932409965,
    "lng": 126.963523905001,
    "radius": 600,
    "cafeCount": 93,
    "restaurantCount": 371,
    "commercialCount": 2,
    "hotPlaceCount": 466,
    "hotPlaceSignal": 613.15
  },
  "노원역": {
    "id": "21160825",
    "name": "노원역 4호선",
    "address": "서울 노원구 상계로 69-1",
    "lat": 37.6563403513278,
    "lng": 127.063449137455,
    "radius": 600,
    "cafeCount": 124,
    "restaurantCount": 654,
    "commercialCount": 4,
    "hotPlaceCount": 782,
    "hotPlaceSignal": 1033.1
  },
  "녹사평역": {
    "id": "21160673",
    "name": "녹사평역 6호선",
    "address": "서울 용산구 녹사평대로 지하 195",
    "lat": 37.5347227952064,
    "lng": 126.9865496751,
    "radius": 600,
    "cafeCount": 84,
    "restaurantCount": 431,
    "commercialCount": 9,
    "hotPlaceCount": 524,
    "hotPlaceSignal": 685.8
  },
  "당산역": {
    "id": "21160580",
    "name": "당산역 2호선",
    "address": "서울 영등포구 당산로 229",
    "lat": 37.5347843171332,
    "lng": 126.902611795523,
    "radius": 600,
    "cafeCount": 66,
    "restaurantCount": 288,
    "commercialCount": 2,
    "hotPlaceCount": 356,
    "hotPlaceSignal": 468.7
  },
  "덕계역": {
    "id": "21160792",
    "name": "덕계역 1호선",
    "address": "경기 양주시 덕계로 126",
    "lat": 37.8187525814885,
    "lng": 127.056691678415,
    "radius": 600,
    "cafeCount": 21,
    "restaurantCount": 102,
    "commercialCount": 0,
    "hotPlaceCount": 123,
    "hotPlaceSignal": 162.9
  },
  "덕정역": {
    "id": "10307395",
    "name": "덕정역 1호선",
    "address": "경기 양주시 화합로 1356",
    "lat": 37.8431876500694,
    "lng": 127.06155932141,
    "radius": 600,
    "cafeCount": 19,
    "restaurantCount": 112,
    "commercialCount": 0,
    "hotPlaceCount": 131,
    "hotPlaceSignal": 174
  },
  "도봉산역": {
    "id": "21160517",
    "name": "도봉산역 1호선",
    "address": "서울 도봉구 도봉로 948",
    "lat": 37.68951167833238,
    "lng": 127.04606271663916,
    "radius": 600,
    "cafeCount": 15,
    "restaurantCount": 110,
    "commercialCount": 1,
    "hotPlaceCount": 126,
    "hotPlaceSignal": 166.85
  },
  "동대문역": {
    "id": "21160565",
    "name": "동대문역 1호선",
    "address": "서울 종로구 종로 지하 302",
    "lat": 37.57166940579655,
    "lng": 127.0106338108367,
    "radius": 600,
    "cafeCount": 147,
    "restaurantCount": 593,
    "commercialCount": 20,
    "hotPlaceCount": 760,
    "hotPlaceSignal": 983.95
  },
  "동대문역사문화공원역": {
    "id": "21160617",
    "name": "동대문역사문화공원역 2호선",
    "address": "서울 중구 을지로 지하 279",
    "lat": 37.56566440553802,
    "lng": 127.00900417014896,
    "radius": 600,
    "cafeCount": 169,
    "restaurantCount": 579,
    "commercialCount": 28,
    "hotPlaceCount": 776,
    "hotPlaceSignal": 994.25
  },
  "동두천역": {
    "id": "21160609",
    "name": "동두천역 1호선",
    "address": "경기 동두천시 평화로 2687",
    "lat": 37.9276132662293,
    "lng": 127.05492800053,
    "radius": 600,
    "cafeCount": 4,
    "restaurantCount": 16,
    "commercialCount": 0,
    "hotPlaceCount": 20,
    "hotPlaceSignal": 26.4
  },
  "동두천중앙역": {
    "id": "21160524",
    "name": "동두천중앙역 1호선",
    "address": "경기 동두천시 동두천로 228",
    "lat": 37.9017807357936,
    "lng": 127.05642330094,
    "radius": 600,
    "cafeCount": 42,
    "restaurantCount": 211,
    "commercialCount": 1,
    "hotPlaceCount": 254,
    "hotPlaceSignal": 335.6
  },
  "동묘앞역": {
    "id": "21160608",
    "name": "동묘앞역 1호선",
    "address": "서울 종로구 종로 359",
    "lat": 37.5732166600283,
    "lng": 127.016364227103,
    "radius": 600,
    "cafeCount": 86,
    "restaurantCount": 461,
    "commercialCount": 6,
    "hotPlaceCount": 553,
    "hotPlaceSignal": 727.65
  },
  "둔촌동역": {
    "id": "21160689",
    "name": "둔촌동역 5호선",
    "address": "서울 강동구 양재대로 지하 1369",
    "lat": 37.52765684247226,
    "lng": 127.13621464981398,
    "radius": 600,
    "cafeCount": 85,
    "restaurantCount": 390,
    "commercialCount": 3,
    "hotPlaceCount": 478,
    "hotPlaceSignal": 629.55
  },
  "디지털미디어시티역": {
    "id": "21160854",
    "name": "디지털미디어시티역 6호선",
    "address": "서울 은평구 수색로 지하 175",
    "lat": 37.57601374718818,
    "lng": 126.90127778415635,
    "radius": 600,
    "cafeCount": 48,
    "restaurantCount": 234,
    "commercialCount": 2,
    "hotPlaceCount": 284,
    "hotPlaceSignal": 374.2
  },
  "뚝섬역": {
    "id": "21160627",
    "name": "뚝섬역 2호선",
    "address": "서울 성동구 아차산로 18",
    "lat": 37.547241554679,
    "lng": 127.04738727881,
    "radius": 600,
    "cafeCount": 243,
    "restaurantCount": 603,
    "commercialCount": 26,
    "hotPlaceCount": 872,
    "hotPlaceSignal": 1114.75
  },
  "마포역": {
    "id": "21160752",
    "name": "마포역 5호선",
    "address": "서울 마포구 마포대로 지하 33",
    "lat": 37.53955402908912,
    "lng": 126.94586257221307,
    "radius": 600,
    "cafeCount": 108,
    "restaurantCount": 558,
    "commercialCount": 4,
    "hotPlaceCount": 670,
    "hotPlaceSignal": 884.3
  },
  "망우역": {
    "id": "21161053",
    "name": "망우역 경의중앙선",
    "address": "서울 중랑구 망우로55길 11-10",
    "lat": 37.5992960295399,
    "lng": 127.092367383432,
    "radius": 600,
    "cafeCount": 81,
    "restaurantCount": 421,
    "commercialCount": 2,
    "hotPlaceCount": 504,
    "hotPlaceSignal": 666.25
  },
  "망원역": {
    "id": "21160668",
    "name": "망원역 6호선",
    "address": "서울 마포구 월드컵로 지하 77",
    "lat": 37.5560826563712,
    "lng": 126.910094329982,
    "radius": 600,
    "cafeCount": 258,
    "restaurantCount": 690,
    "commercialCount": 16,
    "hotPlaceCount": 964,
    "hotPlaceSignal": 1246.7
  },
  "명동역": {
    "id": "21160648",
    "name": "명동역 4호선",
    "address": "서울 중구 퇴계로 지하 126",
    "lat": 37.56096526943837,
    "lng": 126.98640235001736,
    "radius": 600,
    "cafeCount": 284,
    "restaurantCount": 873,
    "commercialCount": 33,
    "hotPlaceCount": 1190,
    "hotPlaceSignal": 1530.9
  },
  "문래역": {
    "id": "21160581",
    "name": "문래역 2호선",
    "address": "서울 영등포구 당산로 지하 28",
    "lat": 37.5179757181801,
    "lng": 126.894778820701,
    "radius": 600,
    "cafeCount": 166,
    "restaurantCount": 598,
    "commercialCount": 15,
    "hotPlaceCount": 779,
    "hotPlaceSignal": 1011.75
  },
  "문정역": {
    "id": "21161046",
    "name": "문정역 8호선",
    "address": "서울 송파구 송파대로 지하 179",
    "lat": 37.4860310539381,
    "lng": 127.122484886901,
    "radius": 600,
    "cafeCount": 202,
    "restaurantCount": 698,
    "commercialCount": 3,
    "hotPlaceCount": 903,
    "hotPlaceSignal": 1185.75
  },
  "미금역": {
    "id": "21160930",
    "name": "미금역 수인분당선",
    "address": "경기 성남시 분당구 성남대로 지하 156",
    "lat": 37.35007159880101,
    "lng": 127.10900662549734,
    "radius": 600,
    "cafeCount": 75,
    "restaurantCount": 374,
    "commercialCount": 2,
    "hotPlaceCount": 451,
    "hotPlaceSignal": 595.6
  },
  "미아사거리역": {
    "id": "21160555",
    "name": "미아사거리역 4호선",
    "address": "서울 강북구 도봉로 지하 50",
    "lat": 37.61327836400571,
    "lng": 127.03008663628454,
    "radius": 600,
    "cafeCount": 87,
    "restaurantCount": 513,
    "commercialCount": 4,
    "hotPlaceCount": 604,
    "hotPlaceSignal": 798.35
  },
  "범계역": {
    "id": "11298518",
    "name": "범계역 4호선",
    "address": "경기 안양시 동안구 동안로 지하 130",
    "lat": 37.3897837540429,
    "lng": 126.950783269518,
    "radius": 600,
    "cafeCount": 134,
    "restaurantCount": 512,
    "commercialCount": 3,
    "hotPlaceCount": 649,
    "hotPlaceSignal": 853.05
  },
  "병점역": {
    "id": "7896218",
    "name": "병점역 1호선",
    "address": "경기 화성시 병점구 떡전골로 97",
    "lat": 37.206754501269934,
    "lng": 127.03320150038793,
    "radius": 600,
    "cafeCount": 46,
    "restaurantCount": 188,
    "commercialCount": 1,
    "hotPlaceCount": 235,
    "hotPlaceSignal": 309.35
  },
  "보산역": {
    "id": "7892430",
    "name": "보산역 1호선",
    "address": "경기 동두천시 평화로 2539",
    "lat": 37.914144018035586,
    "lng": 127.0571810247491,
    "radius": 600,
    "cafeCount": 10,
    "restaurantCount": 91,
    "commercialCount": 2,
    "hotPlaceCount": 103,
    "hotPlaceSignal": 135.55
  },
  "부천역": {
    "id": "21160521",
    "name": "부천역 1호선",
    "address": "경기 부천시 소사구 부천로 1",
    "lat": 37.483989787369545,
    "lng": 126.78308287157131,
    "radius": 600,
    "cafeCount": 140,
    "restaurantCount": 808,
    "commercialCount": 2,
    "hotPlaceCount": 950,
    "hotPlaceSignal": 1259.5
  },
  "부평역": {
    "id": "21160577",
    "name": "부평역 1호선",
    "address": "인천 부평구 광장로 16",
    "lat": 37.4894490429055,
    "lng": 126.724331088618,
    "radius": 600,
    "cafeCount": 194,
    "restaurantCount": 735,
    "commercialCount": 4,
    "hotPlaceCount": 933,
    "hotPlaceSignal": 1226.45
  },
  "사당역": {
    "id": "21160811",
    "name": "사당역 2호선",
    "address": "서울 동작구 남부순환로 지하 2089",
    "lat": 37.47656223234824,
    "lng": 126.98155858357366,
    "radius": 600,
    "cafeCount": 126,
    "restaurantCount": 695,
    "commercialCount": 4,
    "hotPlaceCount": 825,
    "hotPlaceSignal": 1090.85
  },
  "산본역": {
    "id": "21160833",
    "name": "산본역 4호선",
    "address": "경기 군포시 번영로 504",
    "lat": 37.3580193085257,
    "lng": 126.933046329836,
    "radius": 600,
    "cafeCount": 108,
    "restaurantCount": 429,
    "commercialCount": 3,
    "hotPlaceCount": 540,
    "hotPlaceSignal": 709.8
  },
  "삼각지역": {
    "id": "25048776",
    "name": "삼각지역 4호선",
    "address": "서울 용산구 한강대로 지하 180",
    "lat": 37.5344393447708,
    "lng": 126.972922951307,
    "radius": 600,
    "cafeCount": 99,
    "restaurantCount": 431,
    "commercialCount": 14,
    "hotPlaceCount": 544,
    "hotPlaceSignal": 705.55
  },
  "삼성역": {
    "id": "21160620",
    "name": "삼성역 2호선",
    "address": "서울 강남구 테헤란로 지하 538",
    "lat": 37.508822740225305,
    "lng": 127.06302321147605,
    "radius": 600,
    "cafeCount": 173,
    "restaurantCount": 594,
    "commercialCount": 44,
    "hotPlaceCount": 811,
    "hotPlaceSignal": 1024.9
  },
  "상동역": {
    "id": "18432525",
    "name": "상동역 7호선",
    "address": "경기 부천시 원미구 길주로 지하 104",
    "lat": 37.50578860265,
    "lng": 126.753192450274,
    "radius": 600,
    "cafeCount": 141,
    "restaurantCount": 560,
    "commercialCount": 4,
    "hotPlaceCount": 705,
    "hotPlaceSignal": 926.6
  },
  "상수역": {
    "id": "21160855",
    "name": "상수역 6호선",
    "address": "서울 마포구 독막로 지하 85",
    "lat": 37.54776618366393,
    "lng": 126.92242989321456,
    "radius": 600,
    "cafeCount": 292,
    "restaurantCount": 933,
    "commercialCount": 52,
    "hotPlaceCount": 1277,
    "hotPlaceSignal": 1628.15
  },
  "상암DMC역": {
    "id": "21160854",
    "name": "디지털미디어시티역 6호선",
    "address": "서울 은평구 수색로 지하 175",
    "lat": 37.57601374718818,
    "lng": 126.90127778415635,
    "radius": 600,
    "cafeCount": 48,
    "restaurantCount": 234,
    "commercialCount": 2,
    "hotPlaceCount": 284,
    "hotPlaceSignal": 374.2
  },
  "서울대입구역": {
    "id": "21160541",
    "name": "서울대입구역 2호선",
    "address": "서울 관악구 남부순환로 지하 1822",
    "lat": 37.4812845080678,
    "lng": 126.952713197762,
    "radius": 600,
    "cafeCount": 182,
    "restaurantCount": 760,
    "commercialCount": 1,
    "hotPlaceCount": 943,
    "hotPlaceSignal": 1244.75
  },
  "서울숲역": {
    "id": "18234120",
    "name": "서울숲역 수인분당선",
    "address": "서울 성동구 왕십리로 지하 77",
    "lat": 37.543645796605,
    "lng": 127.044746216358,
    "radius": 600,
    "cafeCount": 186,
    "restaurantCount": 490,
    "commercialCount": 26,
    "hotPlaceCount": 702,
    "hotPlaceSignal": 893.8
  },
  "서울역": {
    "id": "21161051",
    "name": "서울역 공항철도",
    "address": "서울 용산구 청파로 378",
    "lat": 37.55332892758497,
    "lng": 126.96974961781686,
    "radius": 600,
    "cafeCount": 115,
    "restaurantCount": 426,
    "commercialCount": 10,
    "hotPlaceCount": 551,
    "hotPlaceSignal": 716.6
  },
  "서현역": {
    "id": "21160865",
    "name": "서현역 수인분당선",
    "address": "경기 성남시 분당구 성남대로 지하 601",
    "lat": 37.3850154269126,
    "lng": 127.123431479636,
    "radius": 600,
    "cafeCount": 113,
    "restaurantCount": 428,
    "commercialCount": 3,
    "hotPlaceCount": 544,
    "hotPlaceSignal": 714.45
  },
  "석계역": {
    "id": "7946022",
    "name": "석계역 1호선",
    "address": "서울 노원구 화랑로 341",
    "lat": 37.61500552731744,
    "lng": 127.06568946412851,
    "radius": 600,
    "cafeCount": 37,
    "restaurantCount": 252,
    "commercialCount": 2,
    "hotPlaceCount": 291,
    "hotPlaceSignal": 385.3
  },
  "석촌역": {
    "id": "21160778",
    "name": "석촌역 8호선",
    "address": "서울 송파구 송파대로 지하 439",
    "lat": 37.5054141216925,
    "lng": 127.107004062699,
    "radius": 600,
    "cafeCount": 191,
    "restaurantCount": 592,
    "commercialCount": 4,
    "hotPlaceCount": 787,
    "hotPlaceSignal": 1029.8
  },
  "선릉역": {
    "id": "21161056",
    "name": "선릉역 수인분당선",
    "address": "서울 강남구 테헤란로 지하 340",
    "lat": 37.505167825521674,
    "lng": 127.04870992465413,
    "radius": 600,
    "cafeCount": 191,
    "restaurantCount": 739,
    "commercialCount": 7,
    "hotPlaceCount": 937,
    "hotPlaceSignal": 1229.3
  },
  "성수역": {
    "id": "21160626",
    "name": "성수역 2호선",
    "address": "서울 성동구 아차산로 100",
    "lat": 37.5445888153751,
    "lng": 127.056066999327,
    "radius": 600,
    "cafeCount": 208,
    "restaurantCount": 557,
    "commercialCount": 19,
    "hotPlaceCount": 784,
    "hotPlaceSignal": 1008.2
  },
  "소요산역": {
    "id": "21160793",
    "name": "소요산역 1호선",
    "address": "경기 동두천시 평화로 2925",
    "lat": 37.9488975919392,
    "lng": 127.061128608638,
    "radius": 600,
    "cafeCount": 3,
    "restaurantCount": 40,
    "commercialCount": 2,
    "hotPlaceCount": 45,
    "hotPlaceSignal": 58.3
  },
  "송내역": {
    "id": "21160606",
    "name": "송내역 1호선",
    "address": "경기 부천시 소사구 송내대로 43",
    "lat": 37.48764140324914,
    "lng": 126.75315944764172,
    "radius": 600,
    "cafeCount": 80,
    "restaurantCount": 365,
    "commercialCount": 1,
    "hotPlaceCount": 446,
    "hotPlaceSignal": 589.1
  },
  "송도달빛축제공원역": {
    "id": "487445940",
    "name": "송도달빛축제공원역 인천1호선",
    "address": "인천 연수구 인천타워대로 지하 424",
    "lat": 37.406920219431996,
    "lng": 126.62601790846256,
    "radius": 600,
    "cafeCount": 28,
    "restaurantCount": 102,
    "commercialCount": 1,
    "hotPlaceCount": 131,
    "hotPlaceSignal": 171.65
  },
  "송파나루역": {
    "id": "40611700",
    "name": "송파나루역 9호선",
    "address": "서울 송파구 백제고분로 지하 446",
    "lat": 37.51101671275264,
    "lng": 127.11266171422027,
    "radius": 600,
    "cafeCount": 182,
    "restaurantCount": 833,
    "commercialCount": 3,
    "hotPlaceCount": 1018,
    "hotPlaceSignal": 1344
  },
  "수원시청역": {
    "id": "22110556",
    "name": "수원시청역 수인분당선",
    "address": "경기 수원시 권선구 효원로 지하 270",
    "lat": 37.2619226180172,
    "lng": 127.030857188083,
    "radius": 600,
    "cafeCount": 170,
    "restaurantCount": 707,
    "commercialCount": 14,
    "hotPlaceCount": 891,
    "hotPlaceSignal": 1163.35
  },
  "수원역": {
    "id": "7963937",
    "name": "수원역 1호선",
    "address": "경기 수원시 팔달구 덕영대로 924",
    "lat": 37.26568218296588,
    "lng": 127.00004960484385,
    "radius": 600,
    "cafeCount": 108,
    "restaurantCount": 530,
    "commercialCount": 5,
    "hotPlaceCount": 643,
    "hotPlaceSignal": 846.85
  },
  "수유역": {
    "id": "21160454",
    "name": "수유역 4호선",
    "address": "서울 강북구 도봉로 지하 338",
    "lat": 37.63788539420793,
    "lng": 127.02550910860451,
    "radius": 600,
    "cafeCount": 143,
    "restaurantCount": 846,
    "commercialCount": 6,
    "hotPlaceCount": 995,
    "hotPlaceSignal": 1315.8
  },
  "숙대입구역": {
    "id": "21160643",
    "name": "숙대입구역 4호선",
    "address": "서울 용산구 한강대로 지하 306",
    "lat": 37.5445952301115,
    "lng": 126.972118127373,
    "radius": 600,
    "cafeCount": 159,
    "restaurantCount": 486,
    "commercialCount": 9,
    "hotPlaceCount": 654,
    "hotPlaceSignal": 850.05
  },
  "시청역": {
    "id": "21160570",
    "name": "시청역 1호선",
    "address": "서울 중구 세종대로 지하 101",
    "lat": 37.56534539636417,
    "lng": 126.97719821079865,
    "radius": 600,
    "cafeCount": 291,
    "restaurantCount": 966,
    "commercialCount": 53,
    "hotPlaceCount": 1310,
    "hotPlaceSignal": 1671.85
  },
  "신논현역": {
    "id": "7967869",
    "name": "신논현역 9호선",
    "address": "서울 강남구 봉은사로 지하 102",
    "lat": 37.504811111562,
    "lng": 127.025492036104,
    "radius": 600,
    "cafeCount": 227,
    "restaurantCount": 957,
    "commercialCount": 11,
    "hotPlaceCount": 1195,
    "hotPlaceSignal": 1568.2
  },
  "신도림역": {
    "id": "21160787",
    "name": "신도림역 1호선",
    "address": "서울 구로구 경인로 688",
    "lat": 37.508908482648,
    "lng": 126.891312500851,
    "radius": 600,
    "cafeCount": 91,
    "restaurantCount": 462,
    "commercialCount": 12,
    "hotPlaceCount": 565,
    "hotPlaceSignal": 737.1
  },
  "신사역": {
    "id": "21160633",
    "name": "신사역 3호선",
    "address": "서울 강남구 도산대로 지하 102",
    "lat": 37.51643597531432,
    "lng": 127.02030856272764,
    "radius": 600,
    "cafeCount": 203,
    "restaurantCount": 667,
    "commercialCount": 23,
    "hotPlaceCount": 893,
    "hotPlaceSignal": 1152.1
  },
  "신설동역": {
    "id": "21160522",
    "name": "신설동역 1호선",
    "address": "서울 동대문구 왕산로 지하 1",
    "lat": 37.5760299683175,
    "lng": 127.024456700382,
    "radius": 600,
    "cafeCount": 82,
    "restaurantCount": 404,
    "commercialCount": 5,
    "hotPlaceCount": 491,
    "hotPlaceSignal": 645.55
  },
  "신용산역": {
    "id": "21160557",
    "name": "신용산역 4호선",
    "address": "서울 용산구 한강대로 지하 112",
    "lat": 37.5292591489375,
    "lng": 126.967965039183,
    "radius": 600,
    "cafeCount": 181,
    "restaurantCount": 606,
    "commercialCount": 15,
    "hotPlaceCount": 802,
    "hotPlaceSignal": 1040.55
  },
  "신촌역": {
    "id": "21160531",
    "name": "신촌역 2호선",
    "address": "서울 마포구 신촌로 지하 90",
    "lat": 37.555198169366435,
    "lng": 126.93698075993808,
    "radius": 600,
    "cafeCount": 231,
    "restaurantCount": 854,
    "commercialCount": 28,
    "hotPlaceCount": 1113,
    "hotPlaceSignal": 1439.9
  },
  "아현역": {
    "id": "21160583",
    "name": "아현역 2호선",
    "address": "서울 마포구 신촌로 지하 270",
    "lat": 37.55740617797663,
    "lng": 126.95614644008904,
    "radius": 600,
    "cafeCount": 51,
    "restaurantCount": 209,
    "commercialCount": 4,
    "hotPlaceCount": 264,
    "hotPlaceSignal": 344.75
  },
  "안국역": {
    "id": "21160552",
    "name": "안국역 3호선",
    "address": "서울 종로구 율곡로 지하 62",
    "lat": 37.57650192060523,
    "lng": 126.98542143228659,
    "radius": 600,
    "cafeCount": 337,
    "restaurantCount": 864,
    "commercialCount": 155,
    "hotPlaceCount": 1356,
    "hotPlaceSignal": 1625.05
  },
  "안양역": {
    "id": "21160799",
    "name": "안양역 1호선",
    "address": "경기 안양시 만안구 만안로 232",
    "lat": 37.4016838636508,
    "lng": 126.922729807594,
    "radius": 600,
    "cafeCount": 122,
    "restaurantCount": 567,
    "commercialCount": 4,
    "hotPlaceCount": 693,
    "hotPlaceSignal": 913.25
  },
  "압구정로데오역": {
    "id": "18234115",
    "name": "압구정로데오역 수인분당선",
    "address": "서울 강남구 압구정로 지하 402",
    "lat": 37.5275184818021,
    "lng": 127.0406027693898,
    "radius": 600,
    "cafeCount": 153,
    "restaurantCount": 705,
    "commercialCount": 35,
    "hotPlaceCount": 893,
    "hotPlaceSignal": 1147.6
  },
  "압구정역": {
    "id": "21160592",
    "name": "압구정역 3호선",
    "address": "서울 강남구 압구정로 지하 172",
    "lat": 37.52649127416921,
    "lng": 127.02850865895756,
    "radius": 600,
    "cafeCount": 134,
    "restaurantCount": 435,
    "commercialCount": 38,
    "hotPlaceCount": 607,
    "hotPlaceSignal": 761.35
  },
  "야탑역": {
    "id": "17492800",
    "name": "야탑역 수인분당선",
    "address": "경기 성남시 분당구 성남대로 지하 903",
    "lat": 37.4113736407028,
    "lng": 127.128742990837,
    "radius": 600,
    "cafeCount": 100,
    "restaurantCount": 461,
    "commercialCount": 4,
    "hotPlaceCount": 565,
    "hotPlaceSignal": 743.75
  },
  "양주역": {
    "id": "7994426",
    "name": "양주역 1호선",
    "address": "경기 양주시 평화로 919",
    "lat": 37.7741421622165,
    "lng": 127.044721319691,
    "radius": 600,
    "cafeCount": 3,
    "restaurantCount": 4,
    "commercialCount": 0,
    "hotPlaceCount": 7,
    "hotPlaceSignal": 9
  },
  "어린이대공원역": {
    "id": "21160702",
    "name": "어린이대공원역 7호선",
    "address": "서울 광진구 능동로 지하 210",
    "lat": 37.54796087622509,
    "lng": 127.07465525507352,
    "radius": 600,
    "cafeCount": 117,
    "restaurantCount": 391,
    "commercialCount": 16,
    "hotPlaceCount": 524,
    "hotPlaceSignal": 673.85
  },
  "여의나루역": {
    "id": "21160661",
    "name": "여의나루역 5호선",
    "address": "서울 영등포구 여의동로 지하 343",
    "lat": 37.5271469489465,
    "lng": 126.93298596744,
    "radius": 600,
    "cafeCount": 66,
    "restaurantCount": 210,
    "commercialCount": 3,
    "hotPlaceCount": 279,
    "hotPlaceSignal": 363.75
  },
  "여의도역": {
    "id": "21160843",
    "name": "여의도역 5호선",
    "address": "서울 영등포구 여의나루로 지하 40",
    "lat": 37.5217753947299,
    "lng": 126.924397990207,
    "radius": 600,
    "cafeCount": 201,
    "restaurantCount": 818,
    "commercialCount": 6,
    "hotPlaceCount": 1025,
    "hotPlaceSignal": 1347.6
  },
  "역삼역": {
    "id": "21160619",
    "name": "역삼역 2호선",
    "address": "서울 강남구 테헤란로 지하 156",
    "lat": 37.5006744185994,
    "lng": 127.03646946847,
    "radius": 600,
    "cafeCount": 219,
    "restaurantCount": 808,
    "commercialCount": 16,
    "hotPlaceCount": 1043,
    "hotPlaceSignal": 1359.2
  },
  "연남동역": {
    "id": "21160589",
    "name": "홍대입구역 2호선",
    "address": "서울 마포구 양화로 지하 160",
    "lat": 37.5568707448873,
    "lng": 126.923778562273,
    "radius": 600,
    "cafeCount": 550,
    "restaurantCount": 1248,
    "commercialCount": 72,
    "hotPlaceCount": 1870,
    "hotPlaceSignal": 2370
  },
  "연천역": {
    "id": "2057356921",
    "name": "연천역 1호선",
    "address": "경기 연천군 연천읍 연천로 275",
    "lat": 38.1006071628556,
    "lng": 127.073673786091,
    "radius": 600,
    "cafeCount": 11,
    "restaurantCount": 79,
    "commercialCount": 0,
    "hotPlaceCount": 90,
    "hotPlaceSignal": 119.85
  },
  "영등포역": {
    "id": "21160794",
    "name": "영등포역 1호선",
    "address": "서울 영등포구 경인로 846",
    "lat": 37.5156726288261,
    "lng": 126.907550274975,
    "radius": 600,
    "cafeCount": 124,
    "restaurantCount": 671,
    "commercialCount": 14,
    "hotPlaceCount": 809,
    "hotPlaceSignal": 1059.55
  },
  "예술회관역": {
    "id": "21160970",
    "name": "예술회관역 인천1호선",
    "address": "인천 남동구 예술로 지하 172",
    "lat": 37.4485259845342,
    "lng": 126.700916120922,
    "radius": 600,
    "cafeCount": 201,
    "restaurantCount": 748,
    "commercialCount": 11,
    "hotPlaceCount": 960,
    "hotPlaceSignal": 1254.85
  },
  "옥수역": {
    "id": "21160546",
    "name": "옥수역 3호선",
    "address": "서울 성동구 동호로 21",
    "lat": 37.5415662783673,
    "lng": 127.017393782846,
    "radius": 600,
    "cafeCount": 28,
    "restaurantCount": 121,
    "commercialCount": 1,
    "hotPlaceCount": 150,
    "hotPlaceSignal": 197.3
  },
  "왕십리역": {
    "id": "21160481",
    "name": "왕십리역 2호선",
    "address": "서울 성동구 왕십리로 지하 300",
    "lat": 37.561268363317176,
    "lng": 127.03710337610202,
    "radius": 600,
    "cafeCount": 145,
    "restaurantCount": 707,
    "commercialCount": 7,
    "hotPlaceCount": 859,
    "hotPlaceSignal": 1130.9
  },
  "용산역": {
    "id": "21160526",
    "name": "용산역 1호선",
    "address": "서울 용산구 한강대로23길 55",
    "lat": 37.52977356999725,
    "lng": 126.96462961258051,
    "radius": 600,
    "cafeCount": 187,
    "restaurantCount": 579,
    "commercialCount": 13,
    "hotPlaceCount": 779,
    "hotPlaceSignal": 1010.6
  },
  "을지로3가역": {
    "id": "21160530",
    "name": "을지로3가역 2호선",
    "address": "서울 중구 을지로 지하 106",
    "lat": 37.56629149790628,
    "lng": 126.99098443539428,
    "radius": 600,
    "cafeCount": 320,
    "restaurantCount": 1338,
    "commercialCount": 46,
    "hotPlaceCount": 1704,
    "hotPlaceSignal": 2206.4
  },
  "을지로4가역": {
    "id": "21160578",
    "name": "을지로4가역 2호선",
    "address": "서울 중구 을지로 지하 178",
    "lat": 37.5666405038268,
    "lng": 126.997632059113,
    "radius": 600,
    "cafeCount": 189,
    "restaurantCount": 860,
    "commercialCount": 32,
    "hotPlaceCount": 1081,
    "hotPlaceSignal": 1399
  },
  "을지로입구역": {
    "id": "21160622",
    "name": "을지로입구역 2호선",
    "address": "서울 중구 을지로 지하 42",
    "lat": 37.566035517712955,
    "lng": 126.9821953112953,
    "radius": 600,
    "cafeCount": 415,
    "restaurantCount": 1434,
    "commercialCount": 48,
    "hotPlaceCount": 1897,
    "hotPlaceSignal": 2450.7
  },
  "응봉역": {
    "id": "17493449",
    "name": "응봉역 경의중앙선",
    "address": "서울 성동구 고산자로 123",
    "lat": 37.5499526279456,
    "lng": 127.034483653629,
    "radius": 600,
    "cafeCount": 18,
    "restaurantCount": 42,
    "commercialCount": 1,
    "hotPlaceCount": 61,
    "hotPlaceSignal": 78.65
  },
  "의정부역": {
    "id": "21160452",
    "name": "의정부역 1호선",
    "address": "경기 의정부시 평화로 525",
    "lat": 37.7383624923599,
    "lng": 127.045956826767,
    "radius": 600,
    "cafeCount": 182,
    "restaurantCount": 856,
    "commercialCount": 4,
    "hotPlaceCount": 1042,
    "hotPlaceSignal": 1375.4
  },
  "이대역": {
    "id": "21160628",
    "name": "이대역 2호선",
    "address": "서울 마포구 신촌로 지하 180",
    "lat": 37.556814718869,
    "lng": 126.94642954546576,
    "radius": 600,
    "cafeCount": 142,
    "restaurantCount": 357,
    "commercialCount": 21,
    "hotPlaceCount": 520,
    "hotPlaceSignal": 659.7
  },
  "이수역": {
    "id": "21160773",
    "name": "이수역 7호선",
    "address": "서울 동작구 사당로 지하 310",
    "lat": 37.48528852311765,
    "lng": 126.98167629035197,
    "radius": 600,
    "cafeCount": 153,
    "restaurantCount": 650,
    "commercialCount": 6,
    "hotPlaceCount": 809,
    "hotPlaceSignal": 1063.2
  },
  "이태원역": {
    "id": "21160762",
    "name": "이태원역 6호선",
    "address": "서울 용산구 이태원로 지하 177",
    "lat": 37.5345252050511,
    "lng": 126.994333861918,
    "radius": 600,
    "cafeCount": 125,
    "restaurantCount": 613,
    "commercialCount": 28,
    "hotPlaceCount": 766,
    "hotPlaceSignal": 987.35
  },
  "인천대입구역": {
    "id": "21161020",
    "name": "인천대입구역 인천1호선",
    "address": "인천 연수구 인천타워대로 지하 155",
    "lat": 37.3862063921103,
    "lng": 126.639542234479,
    "radius": 600,
    "cafeCount": 76,
    "restaurantCount": 331,
    "commercialCount": 5,
    "hotPlaceCount": 412,
    "hotPlaceSignal": 539.8
  },
  "인천터미널역": {
    "id": "21161098",
    "name": "인천터미널역 인천1호선",
    "address": "인천 미추홀구 예술로 지하 85",
    "lat": 37.4419166733897,
    "lng": 126.699694889876,
    "radius": 600,
    "cafeCount": 115,
    "restaurantCount": 461,
    "commercialCount": 4,
    "hotPlaceCount": 580,
    "hotPlaceSignal": 761.75
  },
  "잠실새내역": {
    "id": "21160539",
    "name": "잠실새내역 2호선",
    "address": "서울 송파구 올림픽로 지하 140",
    "lat": 37.5116263587296,
    "lng": 127.086314327913,
    "radius": 600,
    "cafeCount": 99,
    "restaurantCount": 552,
    "commercialCount": 4,
    "hotPlaceCount": 655,
    "hotPlaceSignal": 865.4
  },
  "잠실역": {
    "id": "21160809",
    "name": "잠실역 2호선",
    "address": "서울 송파구 올림픽로 지하 265",
    "lat": 37.51331105877401,
    "lng": 127.10023101886318,
    "radius": 600,
    "cafeCount": 157,
    "restaurantCount": 461,
    "commercialCount": 19,
    "hotPlaceCount": 637,
    "hotPlaceSignal": 817.4
  },
  "전곡역": {
    "id": "1478266836",
    "name": "전곡역 1호선",
    "address": "경기 연천군 전곡읍 전곡리 333-10",
    "lat": 38.0244410116172,
    "lng": 127.071725088088,
    "radius": 600,
    "cafeCount": 31,
    "restaurantCount": 219,
    "commercialCount": 0,
    "hotPlaceCount": 250,
    "hotPlaceSignal": 332.85
  },
  "정자역": {
    "id": "21160864",
    "name": "정자역 수인분당선",
    "address": "경기 성남시 분당구 성남대로 지하 333",
    "lat": 37.3661737923199,
    "lng": 127.108097457244,
    "radius": 600,
    "cafeCount": 112,
    "restaurantCount": 473,
    "commercialCount": 4,
    "hotPlaceCount": 589,
    "hotPlaceSignal": 774.35
  },
  "제기동역": {
    "id": "21160567",
    "name": "제기동역 1호선",
    "address": "서울 동대문구 왕산로 지하 93",
    "lat": 37.57817349658033,
    "lng": 127.03494949507864,
    "radius": 600,
    "cafeCount": 69,
    "restaurantCount": 336,
    "commercialCount": 5,
    "hotPlaceCount": 410,
    "hotPlaceSignal": 538.15
  },
  "종각역": {
    "id": "21160613",
    "name": "종각역 1호선",
    "address": "서울 종로구 종로 지하 55",
    "lat": 37.570227990912244,
    "lng": 126.98315081716676,
    "radius": 600,
    "cafeCount": 440,
    "restaurantCount": 1550,
    "commercialCount": 113,
    "hotPlaceCount": 2103,
    "hotPlaceSignal": 2660.05
  },
  "종로3가역": {
    "id": "21160784",
    "name": "종로3가역 1호선",
    "address": "서울 종로구 종로 지하 129",
    "lat": 37.570420844523,
    "lng": 126.992153252476,
    "radius": 600,
    "cafeCount": 282,
    "restaurantCount": 1236,
    "commercialCount": 55,
    "hotPlaceCount": 1573,
    "hotPlaceSignal": 2026.25
  },
  "주안역": {
    "id": "21160576",
    "name": "주안역 1호선",
    "address": "인천 미추홀구 주안로 95-19",
    "lat": 37.46505238644672,
    "lng": 126.67996793218974,
    "radius": 600,
    "cafeCount": 78,
    "restaurantCount": 470,
    "commercialCount": 3,
    "hotPlaceCount": 551,
    "hotPlaceSignal": 729.15
  },
  "지행역": {
    "id": "10772093",
    "name": "지행역 1호선",
    "address": "경기 동두천시 평화로 2285",
    "lat": 37.892342734325595,
    "lng": 127.05579309162063,
    "radius": 600,
    "cafeCount": 52,
    "restaurantCount": 272,
    "commercialCount": 2,
    "hotPlaceCount": 326,
    "hotPlaceSignal": 430.3
  },
  "창동역": {
    "id": "21160604",
    "name": "창동역 1호선",
    "address": "서울 도봉구 마들로11길 77",
    "lat": 37.6533385121404,
    "lng": 127.047644999036,
    "radius": 600,
    "cafeCount": 46,
    "restaurantCount": 286,
    "commercialCount": 4,
    "hotPlaceCount": 336,
    "hotPlaceSignal": 442.7
  },
  "천호역": {
    "id": "8099936",
    "name": "천호역 5호선",
    "address": "서울 강동구 천호대로 지하 997",
    "lat": 37.5385112120297,
    "lng": 127.12392845044,
    "radius": 600,
    "cafeCount": 132,
    "restaurantCount": 599,
    "commercialCount": 6,
    "hotPlaceCount": 737,
    "hotPlaceSignal": 969.15
  },
  "청담역": {
    "id": "21161041",
    "name": "청담역 7호선",
    "address": "서울 강남구 학동로 지하 508",
    "lat": 37.519455579961,
    "lng": 127.053717937903,
    "radius": 600,
    "cafeCount": 47,
    "restaurantCount": 169,
    "commercialCount": 8,
    "hotPlaceCount": 224,
    "hotPlaceSignal": 287.35
  },
  "청량리역": {
    "id": "21160572",
    "name": "청량리역 1호선",
    "address": "서울 동대문구 왕산로 지하 205",
    "lat": 37.580037056302906,
    "lng": 127.04472723023305,
    "radius": 600,
    "cafeCount": 84,
    "restaurantCount": 554,
    "commercialCount": 5,
    "hotPlaceCount": 643,
    "hotPlaceSignal": 850.45
  },
  "청산역": {
    "id": "1701587971",
    "name": "청산역 1호선",
    "address": "경기 연천군 청산면 학담로 46",
    "lat": 37.9950890028797,
    "lng": 127.074273958107,
    "radius": 600,
    "cafeCount": 2,
    "restaurantCount": 8,
    "commercialCount": 0,
    "hotPlaceCount": 10,
    "hotPlaceSignal": 13.2
  },
  "충무로역": {
    "id": "21160543",
    "name": "충무로역 3호선",
    "address": "서울 중구 퇴계로 지하 214",
    "lat": 37.56139658395457,
    "lng": 126.99414960395544,
    "radius": 600,
    "cafeCount": 231,
    "restaurantCount": 943,
    "commercialCount": 26,
    "hotPlaceCount": 1200,
    "hotPlaceSignal": 1559.35
  },
  "태릉입구역": {
    "id": "17754628",
    "name": "태릉입구역 7호선",
    "address": "서울 노원구 동일로 지하 992-1",
    "lat": 37.618459513199,
    "lng": 127.075405300578,
    "radius": 600,
    "cafeCount": 106,
    "restaurantCount": 430,
    "commercialCount": 6,
    "hotPlaceCount": 542,
    "hotPlaceSignal": 709.8
  },
  "판교역": {
    "id": "21161059",
    "name": "판교역 신분당선",
    "address": "경기 성남시 분당구 판교역로 지하 160",
    "lat": 37.39477752734142,
    "lng": 127.11119782955879,
    "radius": 600,
    "cafeCount": 92,
    "restaurantCount": 394,
    "commercialCount": 6,
    "hotPlaceCount": 492,
    "hotPlaceSignal": 644.4
  },
  "평촌역": {
    "id": "21160653",
    "name": "평촌역 4호선",
    "address": "경기 안양시 동안구 부림로 지하 123",
    "lat": 37.39423950914369,
    "lng": 126.9638080221341,
    "radius": 600,
    "cafeCount": 87,
    "restaurantCount": 356,
    "commercialCount": 1,
    "hotPlaceCount": 444,
    "hotPlaceSignal": 585.35
  },
  "한남역": {
    "id": "21160736",
    "name": "한남역 경의중앙선",
    "address": "서울 용산구 독서당로6길 12-13",
    "lat": 37.5294289189437,
    "lng": 127.009209110584,
    "radius": 600,
    "cafeCount": 38,
    "restaurantCount": 227,
    "commercialCount": 3,
    "hotPlaceCount": 268,
    "hotPlaceSignal": 353.1
  },
  "합정역": {
    "id": "21160542",
    "name": "합정역 2호선",
    "address": "서울 마포구 양화로 지하 55",
    "lat": 37.54991315995173,
    "lng": 126.91445406513526,
    "radius": 600,
    "cafeCount": 322,
    "restaurantCount": 909,
    "commercialCount": 59,
    "hotPlaceCount": 1290,
    "hotPlaceSignal": 1634.2
  },
  "혜화역": {
    "id": "21160556",
    "name": "혜화역 4호선",
    "address": "서울 종로구 대학로 지하 120",
    "lat": 37.58204391787134,
    "lng": 127.00194500977393,
    "radius": 600,
    "cafeCount": 225,
    "restaurantCount": 535,
    "commercialCount": 211,
    "hotPlaceCount": 971,
    "hotPlaceSignal": 1066.1
  },
  "홍대입구역": {
    "id": "21160589",
    "name": "홍대입구역 2호선",
    "address": "서울 마포구 양화로 지하 160",
    "lat": 37.5568707448873,
    "lng": 126.923778562273,
    "radius": 600,
    "cafeCount": 550,
    "restaurantCount": 1248,
    "commercialCount": 72,
    "hotPlaceCount": 1870,
    "hotPlaceSignal": 2370
  },
  "회기역": {
    "id": "622214266",
    "name": "회기역 1호선",
    "address": "서울 동대문구 회기로 196",
    "lat": 37.5897962196601,
    "lng": 127.058048369273,
    "radius": 600,
    "cafeCount": 125,
    "restaurantCount": 412,
    "commercialCount": 2,
    "hotPlaceCount": 539,
    "hotPlaceSignal": 706.9
  },
  "회룡역": {
    "id": "10965595",
    "name": "회룡역 1호선",
    "address": "경기 의정부시 평화로 363",
    "lat": 37.7238058806629,
    "lng": 127.047295368138,
    "radius": 600,
    "cafeCount": 37,
    "restaurantCount": 222,
    "commercialCount": 0,
    "hotPlaceCount": 259,
    "hotPlaceSignal": 344.1
  }
}
